[
{"name": "Almere", "province": "Flevoland", "population": "201703", "latitude": "52.366667", "longitude": "5.216667"},
{"name": "Alblasserdam", "province": "Zuid-Holland", "population": "20005", "latitude": "51.866667", "longitude": "4.666667"},
{"name": "Aalburg", "province": "Noord-Brabant", "population": "13061", "latitude": "51.753889", "longitude": "5.131389"},
{"name": "Alkmaar", "province": "Noord-Holland", "population": "108618", "latitude": "52.616667", "longitude": "4.766667"},
{"name": "Almelo", "province": "Overijssel", "population": "72373", "latitude": "52.366667", "longitude": "6.666667"},
{"name": "Alphen aan den Rijn", "province": "Zuid-Holland", "population": "109107", "latitude": "52.133333", "longitude": "4.65"},
{"name": "Alphen-Chaam", "province": "Noord-Brabant", "population": "10040", "latitude": "51.499167", "longitude": "4.872222"},
{"name": "Albrandswaard", "province": "Zuid-Holland", "population": "25141", "latitude": "51.866667", "longitude": "4.416667"},
{"name": "Aalsmeer", "province": "Noord-Holland", "population": "31393", "latitude": "52.233333", "longitude": "4.75"},
{"name": "Aalten", "province": "Gelderland", "population": "27134", "latitude": "51.933333", "longitude": "6.583333"},
{"name": "Amsterdam", "province": "Noord-Holland", "population": "853312", "latitude": "52.366667", "longitude": "4.883333"},
{"name": "Amstelveen", "province": "Noord-Holland", "population": "89608", "latitude": "52.3", "longitude": "4.833333"},
{"name": "Echt-Susteren", "province": "Limburg", "population": "31745", "latitude": "51.083333", "longitude": "5.866667"},
{"name": "Apeldoorn", "province": "Gelderland", "population": "160497", "latitude": "52.216667", "longitude": "5.95"},
{"name": "Bladel", "province": "Noord-Brabant", "population": "20094", "latitude": "51.366667", "longitude": "5.216667"},
{"name": "Cromstrijen", "province": "Zuid-Holland", "population": "12787", "latitude": "51.75", "longitude": "4.45"},
{"name": "Zwartewaterland", "province": "Overijssel", "population": "22345", "latitude": "52.583333", "longitude": "6.083333"},
{"name": "Zwijndrecht", "province": "Zuid-Holland", "population": "44392", "latitude": "51.816667", "longitude": "4.65"},
{"name": "Zwolle", "province": "Overijssel", "population": "125709", "latitude": "52.516667", "longitude": "6.083333"},
{"name": "Zevenaar", "province": "Gelderland", "population": "32392", "latitude": "51.916667", "longitude": "6.083333"},
{"name": "Zoeterwoude", "province": "Zuid-Holland", "population": "8383", "latitude": "52.113889", "longitude": "4.506111"},
{"name": "Zoetermeer", "province": "Zuid-Holland", "population": "124750", "latitude": "52.05", "longitude": "4.5"},
{"name": "Zeist", "province": "Utrecht", "population": "62894", "latitude": "52.083333", "longitude": "5.233333"},
{"name": "Zuidhorn", "province": "Groningen", "population": "18927", "latitude": "53.246808", "longitude": "6.407694"},
{"name": "Zuidplas", "province": "Zuid-Holland", "population": "41571", "latitude": "52.016667", "longitude": "4.616667"},
{"name": "Woudenberg", "province": "Utrecht", "population": "12815", "latitude": "52.066667", "longitude": "5.4"},
{"name": "Woudrichem", "province": "Noord-Brabant", "population": "14586", "latitude": "51.813056", "longitude": "5.001111"},
{"name": "Zaanstad", "province": "Noord-Holland", "population": "154037", "latitude": "52.466667", "longitude": "4.783333"},
{"name": "Zaltbommel", "province": "Gelderland", "population": "13856", "latitude": "51.816667", "longitude": "5.25"},
{"name": "Zeewolde", "province": "Flevoland", "population": "22452", "latitude": "52.333333", "longitude": "5.533333"},
{"name": "Zederik", "province": "Zuid-Holland", "population": "13856", "latitude": "51.933333", "longitude": "5"},
{"name": "Zandvoort", "province": "Noord-Holland", "population": "16903", "latitude": "52.616667", "longitude": "4.866667"},
{"name": "Zundert", "province": "Noord-Brabant", "population": "21717", "latitude": "51.47", "longitude": "4.66"},
{"name": "Wormerland", "province": "Noord-Holland", "population": "15949", "latitude": "52.508889", "longitude": "4.871111"},
{"name": "De Wolden", "province": "Drenthe", "population": "23789", "latitude": "52.666667", "longitude": "6.416667"},
{"name": "Zutphen", "province": "Gelderland", "population": "47314", "latitude": "52.133333", "longitude": "6.2"},
{"name": "Woerden", "province": "Utrecht", "population": "51622", "latitude": "52.083333", "longitude": "4.883333"},
{"name": "Winterswijk", "province": "Gelderland", "population": "28902", "latitude": "51.966667", "longitude": "6.716667"},
{"name": "Woensdrecht", "province": "Noord-Brabant", "population": "21785", "latitude": "51.433333", "longitude": "4.3"},
{"name": "Winsum", "province": "Groningen", "population": "13610", "latitude": "53.333333", "longitude": "6.516667"},
{"name": "Wijk bij Duurstede", "province": "Utrecht", "population": "23629", "latitude": "51.983333", "longitude": "5.333333"},
{"name": "Wijdemeren", "province": "Noord-Holland", "population": "23467", "latitude": "52.216667", "longitude": "5.1"},
{"name": "Wijchen", "province": "Gelderland", "population": "40789", "latitude": "51.8", "longitude": "5.716667"},
{"name": "Westvoorne", "province": "Zuid-Holland", "population": "14334", "latitude": "51.89", "longitude": "4.066111"},
{"name": "Wierden", "province": "Overijssel", "population": "24252", "latitude": "52.35", "longitude": "6.583333"},
{"name": "West Maas en Waal", "province": "Gelderland", "population": "18850", "latitude": "51.883333", "longitude": "5.516667"},
{"name": "Westerveld", "province": "Drenthe", "population": "19069", "latitude": "52.766667", "longitude": "6.233333"},
{"name": "Westervoort", "province": "Gelderland", "population": "15007", "latitude": "51.95", "longitude": "5.966667"},
{"name": "Westland", "province": "Zuid-Holland", "population": "105885", "latitude": "52", "longitude": "4.216667"},
{"name": "Weststellingwerf", "province": "Friesland", "population": "25701", "latitude": "52.883333", "longitude": "6"},
{"name": "Wassenaar", "province": "Zuid-Holland", "population": "26034", "latitude": "52.15", "longitude": "4.383333"},
{"name": "Weesp", "province": "Noord-Holland", "population": "18827", "latitude": "52.516667", "longitude": "5.05"},
{"name": "Werkendam", "province": "Noord-Brabant", "population": "26838", "latitude": "51.81", "longitude": "4.893056"},
{"name": "Waterland", "province": "Noord-Holland", "population": "17240", "latitude": "52.451111", "longitude": "5.02"},
{"name": "Waalwijk", "province": "Noord-Brabant", "population": "47427", "latitude": "51.7", "longitude": "5.1"},
{"name": "Weert", "province": "Limburg", "population": "49502", "latitude": "51.25", "longitude": "5.7"},
{"name": "Waddinxveen", "province": "Zuid-Holland", "population": "26901", "latitude": "52.033333", "longitude": "4.633333"},
{"name": "Voorschoten", "province": "Zuid-Holland", "population": "25363", "latitude": "52.116667", "longitude": "4.433333"},
{"name": "Vught", "province": "Noord-Brabant", "population": "26347", "latitude": "51.65", "longitude": "5.283333"},
{"name": "Vlissingen", "province": "Zeeland", "population": "44451", "latitude": "51.45", "longitude": "3.583333"},
{"name": "Voerendaal", "province": "Limburg", "population": "12446", "latitude": "50.883333", "longitude": "5.916667"},
{"name": "Vlieland", "province": "Friesland", "population": "1112", "latitude": "53.466667", "longitude": "5.1"},
{"name": "Waalre", "province": "Noord-Brabant", "population": "16953", "latitude": "51.386944", "longitude": "5.446111"},
{"name": "Voorst", "province": "Gelderland", "population": "24165", "latitude": "52.233333", "longitude": "6.083333"},
{"name": "Vianen", "province": "Utrecht", "population": "19702", "latitude": "52", "longitude": "5.1"},
{"name": "Wageningen", "province": "Gelderland", "population": "38448", "latitude": "51.966667", "longitude": "5.666667"},
{"name": "Vlaardingen", "province": "Zuid-Holland", "population": "72215", "latitude": "51.916667", "longitude": "4.35"},
{"name": "Venray", "province": "Limburg", "population": "43544", "latitude": "51.533333", "longitude": "5.966667"},
{"name": "Venlo", "province": "Limburg", "population": "100872", "latitude": "51.366667", "longitude": "6.166667"},
{"name": "Veere", "province": "Zeeland", "population": "21896", "latitude": "51.55", "longitude": "3.533333"},
{"name": "Velsen", "province": "Noord-Holland", "population": "67585", "latitude": "52.466667", "longitude": "4.616667"},
{"name": "Valkenswaard", "province": "Noord-Brabant", "population": "30507", "latitude": "51.35", "longitude": "5.466667"},
{"name": "Utrechtse Heuvelrug", "province": "Utrecht", "population": "49109", "latitude": "52.041944", "longitude": "5.451111"},
{"name": "Utrecht", "province": "Utrecht", "population": "344384", "latitude": "52.083333", "longitude": "5.116667"},
{"name": "Valkenburg a/d Geul", "province": "Limburg", "population": "16434", "latitude": "50.85", "longitude": "5.833333"},
{"name": "Veenendaal", "province": "Utrecht", "population": "64417", "latitude": "52.016667", "longitude": "5.55"},
{"name": "Vaals", "province": "Limburg", "population": "9730", "latitude": "50.769444", "longitude": "6.018056"},
{"name": "Veendam", "province": "Groningen", "population": "27519", "latitude": "53.1", "longitude": "6.866667"},
{"name": "Urk", "province": "Flevoland", "population": "20342", "latitude": "52.65", "longitude": "5.6"},
{"name": "Veldhoven", "province": "Noord-Brabant", "population": "44680", "latitude": "51.4", "longitude": "5.4"},
{"name": "Uithoorn", "province": "Noord-Holland", "population": "29247", "latitude": "52.241944", "longitude": "4.825"},
{"name": "Twenterand", "province": "Overijssel", "population": "33839", "latitude": "52.4", "longitude": "6.616667"},
{"name": "Tynaarlo", "province": "Drenthe", "population": "33259", "latitude": "53.066667", "longitude": "6.566667"},
{"name": "Tubbergen", "province": "Overijssel", "population": "21152", "latitude": "52.4", "longitude": "6.766667"},
{"name": "Uden", "province": "Noord-Brabant", "population": "41496", "latitude": "51.666667", "longitude": "5.616667"},
{"name": "Tilburg", "province": "Noord-Brabant", "population": "214157", "latitude": "51.55", "longitude": "5.083333"},
{"name": "Uitgeest", "province": "Noord-Holland", "population": "13462", "latitude": "52.528889", "longitude": "4.71"},
{"name": "Terneuzen", "province": "Zeeland", "population": "54519", "latitude": "51.3", "longitude": "3.833333"},
{"name": "Terschelling", "province": "Friesland", "population": "4837", "latitude": "53.4", "longitude": "5.35"},
{"name": "Tiel", "province": "Gelderland", "population": "41432", "latitude": "51.883333", "longitude": "5.433333"},
{"name": "Texel", "province": "Noord-Holland", "population": "13576", "latitude": "53.066667", "longitude": "4.8"},
{"name": "Teylingen", "province": "Zuid-Holland", "population": "36200", "latitude": "52.216667", "longitude": "4.5"},
{"name": "Tietjerksteradeel", "province": "Friesland", "population": "31888", "latitude": "53.183333", "longitude": "5.983333"},
{"name": "Tholen", "province": "Zeeland", "population": "25540", "latitude": "51.583333", "longitude": "4.116667"},
{"name": "S\u00fadwest-Frysl\u00e2n", "province": "Friesland", "population": "84028", "latitude": "53", "longitude": "5.543889"},
{"name": "Stichtse Vecht", "province": "Utrecht", "population": "64411", "latitude": "52.2", "longitude": "5"},
{"name": "Stein", "province": "Limburg", "population": "25015", "latitude": "50.968056", "longitude": "5.765"},
{"name": "Strijen", "province": "Zuid-Holland", "population": "8763", "latitude": "51.75", "longitude": "4.55"},
{"name": "Steenbergen", "province": "Noord-Brabant", "population": "24295", "latitude": "51.583333", "longitude": "4.316667"},
{"name": "Stede Broec", "province": "Noord-Holland", "population": "21656", "latitude": "52.701111", "longitude": "5.225"},
{"name": "Stadskanaal", "province": "Groningen", "population": "32180", "latitude": "52.983333", "longitude": "6.95"},
{"name": "Staphorst", "province": "Overijssel", "population": "16743", "latitude": "52.633333", "longitude": "6.2"},
{"name": "Soest", "province": "Utrecht", "population": "45934", "latitude": "52.183333", "longitude": "5.283333"},
{"name": "Smallingerland", "province": "Friesland", "population": "55848", "latitude": "53.166667", "longitude": "6.166667"},
{"name": "Someren", "province": "Noord-Brabant", "population": "19092", "latitude": "51.383333", "longitude": "5.7"},
{"name": "Steenwijkerland", "province": "Overijssel", "population": "43513", "latitude": "52.783333", "longitude": "6.116667"},
{"name": "Son en Breugel", "province": "Noord-Brabant", "population": "16704", "latitude": "51.516111", "longitude": "5.501944"},
{"name": "Sluis", "province": "Zeeland", "population": "23636", "latitude": "51.333333", "longitude": "3.5"},
{"name": "Sint-Michielsgestel", "province": "Noord-Brabant", "population": "28619", "latitude": "51.643056", "longitude": "5.358889"},
{"name": "Sint Anthonis", "province": "Noord-Brabant", "population": "11595", "latitude": "51.626111", "longitude": "5.881111"},
{"name": "Sliedrecht", "province": "Zuid-Holland", "population": "24979", "latitude": "51.816667", "longitude": "4.766667"},
{"name": "Simpelveld", "province": "Limburg", "population": "10583", "latitude": "50.883333", "longitude": "5.916667"},
{"name": "Sittard-Geleen", "province": "Limburg", "population": "93204", "latitude": "51", "longitude": "5.85"},
{"name": "Schiedam", "province": "Zuid-Holland", "population": "77833", "latitude": "51.916667", "longitude": "4.4"},
{"name": "Rotterdam", "province": "Zuid-Holland", "population": "639587", "latitude": "51.95", "longitude": "4.416667"},
{"name": "Schiermonnikoog", "province": "Friesland", "population": "946", "latitude": "53.466667", "longitude": "6.15"},
{"name": "Rozendaal", "province": "Gelderland", "population": "1520", "latitude": "52", "longitude": "5.966667"},
{"name": "Rucphen", "province": "Noord-Brabant", "population": "22399", "latitude": "51.531944", "longitude": "4.56"},
{"name": "De Ronde Venen", "province": "Utrecht", "population": "42969", "latitude": "52.211944", "longitude": "4.891111"},
{"name": "Roosendaal", "province": "Noord-Brabant", "population": "77069", "latitude": "51.533333", "longitude": "4.466667"},
{"name": "Schagen", "province": "Noord-Holland", "population": "46143", "latitude": "52.783333", "longitude": "4.75"},
{"name": "Scherpenzeel", "province": "Gelderland", "population": "9730", "latitude": "52.066667", "longitude": "5.483333"},
{"name": "Schouwen-Duiveland", "province": "Zeeland", "population": "33735", "latitude": "51.666667", "longitude": "3.883333"},
{"name": "Roermond", "province": "Limburg", "population": "57520", "latitude": "51.2", "longitude": "5.983333"},
{"name": "Schinnen", "province": "Limburg", "population": "12886", "latitude": "50.943056", "longitude": "5.888889"},
{"name": "Rijswijk", "province": "Zuid-Holland", "population": "51241", "latitude": "52.033333", "longitude": "4.316667"},
{"name": "Roerdalen", "province": "Limburg", "population": "20678", "latitude": "51.133333", "longitude": "6"},
{"name": "Ridderkerk", "province": "Zuid-Holland", "population": "45536", "latitude": "51.866667", "longitude": "4.6"},
{"name": "Rijssen-Holten", "province": "Overijssel", "population": "38067", "latitude": "52.3", "longitude": "6.516667"},
{"name": "Rheden", "province": "Gelderland", "population": "43508", "latitude": "52", "longitude": "6.033333"},
{"name": "Renswoude", "province": "Utrecht", "population": "5136", "latitude": "52.073889", "longitude": "5.541111"},
{"name": "Rhenen", "province": "Utrecht", "population": "19668", "latitude": "51.95", "longitude": "5.566667"},
{"name": "Reusel-De Mierden", "province": "Noord-Brabant", "population": "12933", "latitude": "51.361944", "longitude": "5.163056"},
{"name": "Pijnacker-Nootdorp", "province": "Zuid-Holland", "population": "52935", "latitude": "52.016667", "longitude": "4.416667"},
{"name": "Renkum", "province": "Gelderland", "population": "31380", "latitude": "51.983333", "longitude": "5.85"},
{"name": "Raalte", "province": "Overijssel", "population": "36999", "latitude": "52.4", "longitude": "6.283333"},
{"name": "Reimerswaal", "province": "Zeeland", "population": "22411", "latitude": "51.45", "longitude": "4.016667"},
{"name": "Putten", "province": "Gelderland", "population": "24358", "latitude": "52.233333", "longitude": "5.583333"},
{"name": "Purmerend", "province": "Noord-Holland", "population": "79830", "latitude": "52.5", "longitude": "4.966667"},
{"name": "Pekela", "province": "Groningen", "population": "12502", "latitude": "53.1", "longitude": "7"},
{"name": "Peel en Maas", "province": "Limburg", "population": "43295", "latitude": "51.316667", "longitude": "5.983333"},
{"name": "Oudewater", "province": "Utrecht", "population": "10144", "latitude": "52.026944", "longitude": "4.868889"},
{"name": "Papendrecht", "province": "Zuid-Holland", "population": "32208", "latitude": "51.833333", "longitude": "4.7"},
{"name": "Overbetuwe", "province": "Gelderland", "population": "47349", "latitude": "51.866667", "longitude": "5.85"},
{"name": "Ouder-Amstel", "province": "Noord-Holland", "population": "13465", "latitude": "52.291111", "longitude": "4.911944"},
{"name": "Oss", "province": "Noord-Brabant", "population": "90541", "latitude": "51.75", "longitude": "5.516667"},
{"name": "Oud-Beijerland", "province": "Zuid-Holland", "population": "24167", "latitude": "51.8", "longitude": "4.4"},
{"name": "Opmeer", "province": "Noord-Holland", "population": "11429", "latitude": "52.7", "longitude": "4.966667"},
{"name": "Opsterland", "province": "Friesland", "population": "29727", "latitude": "53.083333", "longitude": "6.133333"},
{"name": "Oostzaan", "province": "Noord-Holland", "population": "9691", "latitude": "52.441111", "longitude": "4.878889"},
{"name": "Oost Gelre", "province": "Gelderland", "population": "29614", "latitude": "51.983333", "longitude": "6.583333"},
{"name": "Oude IJsselstreek", "province": "Gelderland", "population": "39550", "latitude": "51.866667", "longitude": "6.383333"},
{"name": "Olst-Wijhe", "province": "Overijssel", "population": "17953", "latitude": "52.333333", "longitude": "6.1"},
{"name": "Ooststellingwerf", "province": "Friesland", "population": "25473", "latitude": "53", "longitude": "6.283333"},
{"name": "Ommen", "province": "Overijssel", "population": "17614", "latitude": "52.516667", "longitude": "6.416667"},
{"name": "Oldambt", "province": "Groningen", "population": "38087", "latitude": "53.2", "longitude": "7.083333"},
{"name": "Oldebroek", "province": "Gelderland", "population": "23330", "latitude": "52.466667", "longitude": "5.916667"},
{"name": "Onderbanken", "province": "Limburg", "population": "7831", "latitude": "50.966667", "longitude": "5.966667"},
{"name": "Oisterwijk", "province": "Noord-Brabant", "population": "25949", "latitude": "51.583056", "longitude": "5.2"},
{"name": "Oirschot", "province": "Noord-Brabant", "population": "18538", "latitude": "51.505", "longitude": "5.313056"},
{"name": "Oosterhout", "province": "Noord-Brabant", "population": "54780", "latitude": "51.65", "longitude": "4.85"},
{"name": "Oldenzaal", "province": "Overijssel", "population": "31975", "latitude": "52.3", "longitude": "6.916667"},
{"name": "Oegstgeest", "province": "Zuid-Holland", "population": "23698", "latitude": "52.183333", "longitude": "4.466667"},
{"name": "Nuth", "province": "Limburg", "population": "15284", "latitude": "50.916667", "longitude": "5.883333"},
{"name": "Nuenen c.a.", "province": "Noord-Brabant", "population": "22860", "latitude": "51.486944", "longitude": "5.526111"},
{"name": "Nunspeet", "province": "Gelderland", "population": "26994", "latitude": "52.333333", "longitude": "5.783333"},
{"name": "Noordenveld", "province": "Drenthe", "population": "32818", "latitude": "53.133333", "longitude": "6.416667"},
{"name": "Noordwijk", "province": "Zuid-Holland", "population": "25930", "latitude": "52.25", "longitude": "4.433333"},
{"name": "Noordwijkerhout", "province": "Zuid-Holland", "population": "16405", "latitude": "52.433333", "longitude": "4.833333"},
{"name": "Nissewaard", "province": "Zuid-Holland", "population": "85407", "latitude": "51.833333", "longitude": "4.3"},
{"name": "Nijkerk", "province": "Gelderland", "population": "41860", "latitude": "52.2", "longitude": "5.483333"},
{"name": "Nieuwkoop", "province": "Zuid-Holland", "population": "28020", "latitude": "52.15", "longitude": "4.8"},
{"name": "Noord-Beveland", "province": "Zeeland", "population": "7385", "latitude": "51.583333", "longitude": "3.733333"},
{"name": "Nijmegen", "province": "Gelderland", "population": "174575", "latitude": "51.833333", "longitude": "5.866667"},
{"name": "Neerijnen", "province": "Gelderland", "population": "12353", "latitude": "51.833333", "longitude": "5.283333"},
{"name": "Noordoostpolder", "province": "Flevoland", "population": "46573", "latitude": "52.716667", "longitude": "5.7"},
{"name": "Nederweert", "province": "Limburg", "population": "16939", "latitude": "51.283333", "longitude": "5.75"},
{"name": "Nieuwegein", "province": "Utrecht", "population": "61923", "latitude": "52.031111", "longitude": "5.091944"},
{"name": "Mook en Middelaar", "province": "Limburg", "population": "7756", "latitude": "51.753056", "longitude": "5.881944"},
{"name": "Neder-Betuwe", "province": "Gelderland", "population": "23398", "latitude": "51.933333", "longitude": "5.633333"},
{"name": "Montfoort", "province": "Utrecht", "population": "13853", "latitude": "52.033333", "longitude": "4.95"},
{"name": "Montferland", "province": "Gelderland", "population": "35396", "latitude": "51.933333", "longitude": "6.15"},
{"name": "Moerdijk", "province": "Noord-Brabant", "population": "36988", "latitude": "51.655", "longitude": "4.533056"},
{"name": "Molenwaard", "province": "Zuid-Holland", "population": "29230", "latitude": "51.866667", "longitude": "4.783333"},
{"name": "Meerssen", "province": "Limburg", "population": "19073", "latitude": "50.886111", "longitude": "5.751944"},
{"name": "Middelburg", "province": "Zeeland", "population": "48081", "latitude": "51.5", "longitude": "3.616667"},
{"name": "Midden-Delfland", "province": "Zuid-Holland", "population": "19117", "latitude": "51.966667", "longitude": "4.3"},
{"name": "Meppel", "province": "Drenthe", "population": "33155", "latitude": "52.7", "longitude": "6.183333"},
{"name": "Midden-Drenthe", "province": "Drenthe", "population": "33311", "latitude": "52.85", "longitude": "6.5"},
{"name": "Mill en Sint Hubert", "province": "Noord-Brabant", "population": "10825", "latitude": "51.681111", "longitude": "5.795"},
{"name": "Marum", "province": "Groningen", "population": "10402", "latitude": "53.133333", "longitude": "6.25"},
{"name": "Medemblik", "province": "Noord-Holland", "population": "44042", "latitude": "52.743889", "longitude": "5.061111"},
{"name": "Maassluis", "province": "Zuid-Holland", "population": "32470", "latitude": "51.933333", "longitude": "4.25"},
{"name": "De Marne", "province": "Groningen", "population": "10051", "latitude": "53.35", "longitude": "6.366667"},
{"name": "Maasgouw", "province": "Limburg", "population": "23822", "latitude": "51.15", "longitude": "5.883333"},
{"name": "Lochem", "province": "Gelderland", "population": "33556", "latitude": "52.15", "longitude": "6.4"},
{"name": "Lopik", "province": "Utrecht", "population": "14290", "latitude": "4.95", "longitude": "51.983333"},
{"name": "Loon op Zand", "province": "Noord-Brabant", "population": "23117", "latitude": "51.628056", "longitude": "5.076111"},
{"name": "Lisse", "province": "Zuid-Holland", "population": "22740", "latitude": "52.25", "longitude": "4.55"},
{"name": "Lingewaard", "province": "Gelderland", "population": "46185", "latitude": "51.9", "longitude": "5.9"},
{"name": "Maasdriel", "province": "Gelderland", "population": "24280", "latitude": "51.766667", "longitude": "5.333333"},
{"name": "Loppersum", "province": "Groningen", "population": "9887", "latitude": "53.316667", "longitude": "6.733333"},
{"name": "Losser", "province": "Overijssel", "population": "22507", "latitude": "52.25", "longitude": "7"},
{"name": "Maastricht", "province": "Limburg", "population": "122461", "latitude": "50.85", "longitude": "5.683333"},
{"name": "Lingewaal", "province": "Gelderland", "population": "11157", "latitude": "51.883333", "longitude": "5.116667"},
{"name": "Leusden", "province": "Utrecht", "population": "29700", "latitude": "52.133333", "longitude": "5.416667"},
{"name": "Lelystad", "province": "Flevoland", "population": "77095", "latitude": "52.5", "longitude": "5.466667"},
{"name": "Leudal", "province": "Limburg", "population": "35848", "latitude": "51.25", "longitude": "5.9"},
{"name": "Leiden", "province": "Zuid-Holland", "population": "123924", "latitude": "52.15", "longitude": "4.483333"},
{"name": "Leeuwarderadeel", "province": "Friesland", "population": "", "latitude": "53.25", "longitude": "5.783333"},
{"name": "Leeuwarden", "province": "Friesland", "population": "108768", "latitude": "53.2", "longitude": "5.783333"},
{"name": "Leidschendam-Voorburg", "province": "Zuid-Holland", "population": "74669", "latitude": "52.083333", "longitude": "4.4"},
{"name": "Leiderdorp", "province": "Zuid-Holland", "population": "27143", "latitude": "52.15", "longitude": "4.533333"},
{"name": "Langedijk", "province": "Noord-Holland", "population": "27721", "latitude": "52.693889", "longitude": "4.793889"},
{"name": "Laren", "province": "Noord-Holland", "population": "11079", "latitude": "52.254444", "longitude": "5.231667"},
{"name": "Leek", "province": "Groningen", "population": "19638", "latitude": "53.15", "longitude": "6.383333"},
{"name": "Landsmeer", "province": "Noord-Holland", "population": "11352", "latitude": "52.429167", "longitude": "4.913611"},
{"name": "Leerdam", "province": "Zuid-Holland", "population": "20932", "latitude": "51.9", "longitude": "5.083333"},
{"name": "Lansingerland", "province": "Zuid-Holland", "population": "60482", "latitude": "52", "longitude": "4.5"},
{"name": "Krimpen aan den IJssel", "province": "Zuid-Holland", "population": "29079", "latitude": "51.916667", "longitude": "4.6"},
{"name": "Landerd", "province": "Noord-Brabant", "population": "15336", "latitude": "51.716667", "longitude": "5.65"},
{"name": "Katwijk", "province": "Zuid-Holland", "population": "64589", "latitude": "52.2", "longitude": "4.4"},
{"name": "Kerkrade", "province": "Limburg", "population": "45870", "latitude": "50.85", "longitude": "6.05"},
{"name": "Kapelle", "province": "Zeeland", "population": "12649", "latitude": "51.5", "longitude": "3.95"},
{"name": "Korendijk", "province": "Zuid-Holland", "population": "10998", "latitude": "51.783333", "longitude": "4.333333"},
{"name": "Koggenland", "province": "Noord-Holland", "population": "22551", "latitude": "52.633333", "longitude": "4.95"},
{"name": "Kollumerland en Nieuwkruisland", "province": "Friesland", "population": "12853", "latitude": "53.3", "longitude": "6.183333"},
{"name": "Landgraaf", "province": "Limburg", "population": "37472", "latitude": "50.908056", "longitude": "6.03"},
{"name": "Laarbeek", "province": "Noord-Brabant", "population": "21993", "latitude": "51.516667", "longitude": "5.616667"},
{"name": "Gilze en Rijen", "province": "Noord-Brabant", "population": "26254", "latitude": "51.561111", "longitude": "4.933056"},
{"name": "Epe", "province": "Gelderland", "population": "32622", "latitude": "52.333333", "longitude": "5.916667"},
{"name": "Ermelo", "province": "Gelderland", "population": "26627", "latitude": "52.283333", "longitude": "5.666667"},
{"name": "Kampen", "province": "Overijssel", "population": "52777", "latitude": "52.55", "longitude": "5.9"},
{"name": "Kaag en Braassem", "province": "Zuid-Holland", "population": "26509", "latitude": "52.203056", "longitude": "4.631111"},
{"name": "IJsselstein", "province": "Utrecht", "population": "34307", "latitude": "52.016667", "longitude": "5.05"},
{"name": "Hulst", "province": "Zeeland", "population": "27395", "latitude": "51.316667", "longitude": "4.05"},
{"name": "Horst aan de Maas", "province": "Limburg", "population": "42183", "latitude": "51.436944", "longitude": "6.106111"},
{"name": "Hoogeveen", "province": "Drenthe", "population": "55252", "latitude": "52.066667", "longitude": "6.466667"},
{"name": "Huizen", "province": "Noord-Holland", "population": "41432", "latitude": "52.298889", "longitude": "5.253056"},
{"name": "Houten", "province": "Utrecht", "population": "49395", "latitude": "52.033333", "longitude": "5.166667"},
{"name": "Ferwerderadeel", "province": "Friesland", "population": "8681", "latitude": "53.329444", "longitude": "5.840833"},
{"name": "Etten-Leur", "province": "Noord-Brabant", "population": "43124", "latitude": "51.571111", "longitude": "4.636111"},
{"name": "Hilversum", "province": "Noord-Holland", "population": "89148", "latitude": "52.216667", "longitude": "5.183333"},
{"name": "Eindhoven", "province": "Noord-Brabant", "population": "227100", "latitude": "51.433333", "longitude": "5.466667"},
{"name": "Hoorn", "province": "Noord-Holland", "population": "72759", "latitude": "52.633333", "longitude": "5.05"},
{"name": "Heumen", "province": "Gelderland", "population": "16421", "latitude": "51.783333", "longitude": "5.866667"},
{"name": "Heusden", "province": "Noord-Brabant", "population": "43522", "latitude": "51.7", "longitude": "5.166667"},
{"name": "Hillegom", "province": "Zuid-Holland", "population": "21486", "latitude": "52.3", "longitude": "4.583333"},
{"name": "Hilvarenbeek", "province": "Noord-Brabant", "population": "15320", "latitude": "51.486111", "longitude": "5.136944"},
{"name": "Elburg", "province": "Gelderland", "population": "23058", "latitude": "52.45", "longitude": "5.85"},
{"name": "Hof van Twente", "province": "Overijssel", "population": "34972", "latitude": "52.25", "longitude": "6.7"},
{"name": "Hollands Kroon", "province": "Noord-Holland", "population": "47585", "latitude": "52.878056", "longitude": "4.811389"},
{"name": "Hendrik-Ido-Ambacht", "province": "Zuid-Holland", "population": "30100", "latitude": "51.85", "longitude": "4.633333"},
{"name": "Hengelo", "province": "Overijssel", "population": "80683", "latitude": "52.266667", "longitude": "6.783333"},
{"name": "'s-Hertogenbosch", "province": "Noord-Brabant", "population": "152651", "latitude": "51.683333", "longitude": "5.3"},
{"name": "Heiloo", "province": "Noord-Holland", "population": "22966", "latitude": "52.601111", "longitude": "4.701944"},
{"name": "Hellendoorn", "province": "Overijssel", "population": "35789", "latitude": "52.35", "longitude": "6.45"},
{"name": "Hellevoetsluis", "province": "Zuid-Holland", "population": "38756", "latitude": "51.833333", "longitude": "4.133333"},
{"name": "Den Helder", "province": "Noord-Holland", "population": "56016", "latitude": "52.95", "longitude": "4.766667"},
{"name": "Helmond", "province": "Noord-Brabant", "population": "90576", "latitude": "51.483333", "longitude": "5.65"},
{"name": "Dronten", "province": "Flevoland", "population": "40711", "latitude": "52.516667", "longitude": "5.716667"},
{"name": "Drimmelen", "province": "Noord-Brabant", "population": "26922", "latitude": "51.694444", "longitude": "4.797222"},
{"name": "Druten", "province": "Gelderland", "population": "18604", "latitude": "51.883333", "longitude": "5.6"},
{"name": "Amersfoort", "province": "Utrecht", "population": "154712", "latitude": "52.15", "longitude": "5.383333"},
{"name": "Duiven", "province": "Gelderland", "population": "25382", "latitude": "51.95", "longitude": "6.016667"},
{"name": "Heerhugowaard", "province": "Noord-Holland", "population": "55159", "latitude": "52.666667", "longitude": "4.85"},
{"name": "Heerde", "province": "Gelderland", "population": "18595", "latitude": "52.4", "longitude": "6.05"},
{"name": "Heeze-Leende", "province": "Noord-Brabant", "population": "15724", "latitude": "51.366944", "longitude": "5.558056"},
{"name": "Heerlen", "province": "Limburg", "population": "86910", "latitude": "50.883333", "longitude": "5.966667"},
{"name": "Hardinxveld-Giessendam", "province": "Zuid-Holland", "population": "17925", "latitude": "51.833333", "longitude": "4.833333"},
{"name": "Heerenveen", "province": "Friesland", "population": "50229", "latitude": "52.966667", "longitude": "6.05"},
{"name": "Heemskerk", "province": "Noord-Holland", "population": "39053", "latitude": "52.510833", "longitude": "4.672778"},
{"name": "Harderwijk", "province": "Gelderland", "population": "46582", "latitude": "52.35", "longitude": "5.616667"},
{"name": "Hardenberg", "province": "Overijssel", "population": "60406", "latitude": "52.566667", "longitude": "6.6"},
{"name": "Harlingen", "province": "Friesland", "population": "15848", "latitude": "53.3", "longitude": "5.683333"},
{"name": "Haren", "province": "Groningen", "population": "19672", "latitude": "53.166667", "longitude": "6.6"},
{"name": "Heemstede", "province": "Noord-Holland", "population": "26989", "latitude": "52.35", "longitude": "4.616667"},
{"name": "Hattem", "province": "Gelderland", "population": "12076", "latitude": "52.483333", "longitude": "6.066667"},
{"name": "Haarlemmermeer", "province": "Noord-Holland", "population": "146332", "latitude": "52.316667", "longitude": "4.683333"},
{"name": "Appingedam", "province": "Groningen", "population": "11908", "latitude": "53.316667", "longitude": "6.866667"},
{"name": "Haarlemmerliede en Spaarnwoude", "province": "Noord-Holland", "population": "5702", "latitude": "52.38", "longitude": "4.75"},
{"name": "Halderberge", "province": "Noord-Brabant", "population": "29712", "latitude": "51.586944", "longitude": "4.516944"},
{"name": "Haaren", "province": "Noord-Brabant", "population": "13992", "latitude": "51.6", "longitude": "5.216667"},
{"name": "Haaksbergen", "province": "Overijssel", "population": "24257", "latitude": "52.15", "longitude": "6.733333"},
{"name": "Haarlem", "province": "Noord-Holland", "population": "159340", "latitude": "52.383333", "longitude": "4.633333"},
{"name": "Gulpen-Wittem", "province": "Limburg", "population": "14304", "latitude": "50.816111", "longitude": "5.898056"},
{"name": "Aa en Hunze", "province": "Drenthe", "population": "25294", "latitude": "53", "longitude": "6.75"},
{"name": "Achtkarspelen", "province": "Friesland", "population": "27916", "latitude": "53.416667", "longitude": "6.25"},
{"name": "Grootegast", "province": "Groningen", "population": "12139", "latitude": "53.2", "longitude": "6.266667"},
{"name": "Groningen", "province": "Groningen", "population": "202250", "latitude": "53.216667", "longitude": "6.566667"},
{"name": "Grave", "province": "Noord-Brabant", "population": "12378", "latitude": "51.758889", "longitude": "5.738056"},
{"name": "Gouda", "province": "Zuid-Holland", "population": "71916", "latitude": "52.016667", "longitude": "4.7"},
{"name": "Gennep", "province": "Limburg", "population": "17082", "latitude": "51.683333", "longitude": "5.966667"},
{"name": "Gorinchem", "province": "Zuid-Holland", "population": "36003", "latitude": "51.833333", "longitude": "4.966667"},
{"name": "Goeree-Overflakkee", "province": "Zuid-Holland", "population": "48788", "latitude": "51.75", "longitude": "4.116667"},
{"name": "Giessenlanden", "province": "Zuid-Holland", "population": "14571", "latitude": "51.866667", "longitude": "4.933333"},
{"name": "Goes", "province": "Zeeland", "population": "37408", "latitude": "51.516667", "longitude": "3.833333"},
{"name": "Gemert-Bakel", "province": "Noord-Brabant", "population": "30109", "latitude": "51.531111", "longitude": "5.718889"},
{"name": "Goirle", "province": "Noord-Brabant", "population": "23282", "latitude": "51.52", "longitude": "5.066944"},
{"name": "Geertruidenberg", "province": "Noord-Brabant", "population": "21569", "latitude": "51.7", "longitude": "4.85"},
{"name": "Eijsden-Margraten", "province": "Limburg", "population": "25420", "latitude": "50.783333", "longitude": "5.75"},
{"name": "Enkhuizen", "province": "Noord-Holland", "population": "18491", "latitude": "52.7", "longitude": "5.3"},
{"name": "Emmen", "province": "Drenthe", "population": "107417", "latitude": "52.783333", "longitude": "6.883333"},
{"name": "Enschede", "province": "Overijssel", "population": "157864", "latitude": "52.216667", "longitude": "6.883333"},
{"name": "Geldermalsen", "province": "Gelderland", "population": "26716", "latitude": "51.883333", "longitude": "5.283333"},
{"name": "Eersel", "province": "Noord-Brabant", "population": "18628", "latitude": "51.356944", "longitude": "5.315"},
{"name": "Geldrop-Mierlo", "province": "Noord-Brabant", "population": "39213", "latitude": "51.416667", "longitude": "5.55"},
{"name": "Gooise Meren", "province": "Noord-Holland", "population": "56838", "latitude": "52.266667", "longitude": "5.166667"},
{"name": "Eemsmond", "province": "Groningen", "population": "15618", "latitude": "53.4", "longitude": "6.666667"},
{"name": "Eemnes", "province": "Utrecht", "population": "9009", "latitude": "52.253889", "longitude": "5.256944"},
{"name": "Edam-Volendam", "province": "Noord-Holland", "population": "35859", "latitude": "52.501944", "longitude": "5.061111"},
{"name": "Drechterland", "province": "Noord-Holland", "population": "19353", "latitude": "52.683333", "longitude": "5.166667"},
{"name": "Dongeradeel", "province": "Friesland", "population": "23880", "latitude": "53.35", "longitude": "6.033333"},
{"name": "Dinkelland", "province": "Overijssel", "population": "26201", "latitude": "52.366667", "longitude": "7"},
{"name": "Doesburg", "province": "Gelderland", "population": "11324", "latitude": "52.016667", "longitude": "6.133333"},
{"name": "Diemen", "province": "Noord-Holland", "population": "27362", "latitude": "52.343889", "longitude": "4.963056"},
{"name": "Dongen", "province": "Noord-Brabant", "population": "25651", "latitude": "51.616667", "longitude": "4.933333"},
{"name": "Doetinchem", "province": "Gelderland", "population": "57105", "latitude": "51.966667", "longitude": "6.283333"},
{"name": "Dordrecht", "province": "Zuid-Holland", "population": "118309", "latitude": "51.8", "longitude": "4.666667"},
{"name": "Deurne", "province": "Noord-Brabant", "population": "32045", "latitude": "51.463889", "longitude": "5.795"},
{"name": "Ede", "province": "Gelderland", "population": "113618", "latitude": "52.05", "longitude": "5.666667"},
{"name": "Deventer", "province": "Overijssel", "population": "99497", "latitude": "52.266667", "longitude": "6.2"},
{"name": "Den Haag", "province": "Zuid-Holland", "population": "526439", "latitude": "52.083333", "longitude": "4.3"},
{"name": "De Friese Meren", "province": "Friesland", "population": "51590", "latitude": "52.933333", "longitude": "5.7"},
{"name": "Dantumadeel", "province": "Friesland", "population": "18896", "latitude": "53.283333", "longitude": "5.983333"},
{"name": "Delft", "province": "Zuid-Holland", "population": "101007", "latitude": "52", "longitude": "4.35"},
{"name": "Cuijk", "province": "Noord-Brabant", "population": "24754", "latitude": "51.726944", "longitude": "5.878889"},
{"name": "Culemborg", "province": "Gelderland", "population": "27904", "latitude": "51.95", "longitude": "5.233333"},
{"name": "Dalfsen", "province": "Overijssel", "population": "28125", "latitude": "52.5", "longitude": "6.25"},
{"name": "Delfzijl", "province": "Groningen", "population": "24923", "latitude": "53.333333", "longitude": "6.916667"},
{"name": "Coevorden", "province": "Drenthe", "population": "35189", "latitude": "52.65", "longitude": "6.733333"},
{"name": "Castricum", "province": "Noord-Holland", "population": "35272", "latitude": "52.55", "longitude": "4.666667"},
{"name": "Cranendonck", "province": "Noord-Brabant", "population": "20676", "latitude": "51.285", "longitude": "5.588056"},
{"name": "Capelle aan den IJssel", "province": "Zuid-Holland", "population": "66657", "latitude": "51.933333", "longitude": "4.583333"},
{"name": "Bunnik", "province": "Utrecht", "population": "15169", "latitude": "52.066667", "longitude": "5.2"},
{"name": "Brummen", "province": "Gelderland", "population": "20750", "latitude": "52.1", "longitude": "6.1"},
{"name": "Brunssum", "province": "Limburg", "population": "28289", "latitude": "50.95", "longitude": "5.966667"},
{"name": "Bronckhorst", "province": "Gelderland", "population": "36404", "latitude": "52.05", "longitude": "6.3"},
{"name": "Brielle", "province": "Zuid-Holland", "population": "16885", "latitude": "51.883333", "longitude": "4.183333"},
{"name": "Breda", "province": "Noord-Brabant", "population": "183056", "latitude": "51.583333", "longitude": "4.783333"},
{"name": "Bunschoten", "province": "Utrecht", "population": "21077", "latitude": "52.25", "longitude": "5.366667"},
{"name": "Buren", "province": "Gelderland", "population": "26291", "latitude": "51.910556", "longitude": "5.333333"},
{"name": "Boxmeer", "province": "Noord-Brabant", "population": "28771", "latitude": "51.648056", "longitude": "5.943889"},
{"name": "Boxtel", "province": "Noord-Brabant", "population": "30654", "latitude": "51.583333", "longitude": "5.333333"},
{"name": "Borsele", "province": "Zeeland", "population": "22716", "latitude": "51.433333", "longitude": "3.816667"},
{"name": "Borne", "province": "Overijssel", "population": "22942", "latitude": "52.3", "longitude": "6.75"},
{"name": "Boekel", "province": "Noord-Brabant", "population": "10442", "latitude": "51.6", "longitude": "5.666667"},
{"name": "Bodegraven-Reeuwijk", "province": "Zuid-Holland", "population": "33744", "latitude": "52.061781", "longitude": "4.726869"},
{"name": "Bloemendaal", "province": "Noord-Holland", "population": "22940", "latitude": "52.4", "longitude": "4.616667"},
{"name": "Blaricum", "province": "Noord-Holland", "population": "10302", "latitude": "52.271667", "longitude": "5.241667"},
{"name": "Borger-Odoorn", "province": "Drenthe", "population": "25360", "latitude": "52.85", "longitude": "6.85"},
{"name": "Ten Boer", "province": "Groningen", "population": "7272", "latitude": "53.266667", "longitude": "6.683333"},
{"name": "Binnenmaas", "province": "Zuid-Holland", "population": "29194", "latitude": "51.816667", "longitude": "4.516667"},
{"name": "De Bilt", "province": "Utrecht", "population": "42768", "latitude": "52.1", "longitude": "5.183333"},
{"name": "Beuningen", "province": "Gelderland", "population": "25481", "latitude": "51.85", "longitude": "5.75"},
{"name": "Beverwijk", "province": "Noord-Holland", "population": "40976", "latitude": "52.483333", "longitude": "4.65"},
{"name": "Best", "province": "Noord-Brabant", "population": "29375", "latitude": "51.511111", "longitude": "5.391944"},
{"name": "Bernheze", "province": "Noord-Brabant", "population": "30270", "latitude": "51.683333", "longitude": "5.516667"},
{"name": "Berkelland", "province": "Gelderland", "population": "44166", "latitude": "52.116667", "longitude": "6.516667"},
{"name": "Bergen op Zoom", "province": "Noord-Brabant", "population": "66092", "latitude": "51.5", "longitude": "4.283333"},
{"name": "Berg en Dal", "province": "Gelderland", "population": "34724", "latitude": "51.783333", "longitude": "5.933333"},
{"name": "Beesel", "province": "Limburg", "population": "13390", "latitude": "51.266667", "longitude": "6.033333"},
{"name": "Bergen", "province": "Noord-Holland", "population": "29793", "latitude": "52.670344", "longitude": "4.705411"},
{"name": "Bergen", "province": "Limburg", "population": "13130", "latitude": "51.598889", "longitude": "6.033889"},
{"name": "Bergeijk", "province": "Noord-Brabant", "population": "18359", "latitude": "51.32", "longitude": "5.358889"},
{"name": "Beek", "province": "Limburg", "population": "15942", "latitude": "50.938889", "longitude": "5.796111"},
{"name": "Bedum", "province": "Groningen", "population": "10472", "latitude": "53.283333", "longitude": "6.583333"},
{"name": "Beemster", "province": "Noord-Holland", "population": "9281", "latitude": "52.55", "longitude": "4.928056"},
{"name": "Barendrecht", "province": "Zuid-Holland", "population": "48423", "latitude": "51.85", "longitude": "4.533333"},
{"name": "Barneveld", "province": "Gelderland", "population": "56625", "latitude": "52.133333", "longitude": "5.583333"},
{"name": "Assen", "province": "Drenthe", "population": "67579", "latitude": "52.983333", "longitude": "6.55"},
{"name": "Arnhem", "province": "Gelderland", "population": "156050", "latitude": "51.983333", "longitude": "5.916667"},
{"name": "Ameland", "province": "Friesland", "population": "3638", "latitude": "53.45", "longitude": "5.753889"},
{"name": "Asten", "province": "Noord-Brabant", "population": "16658", "latitude": "51.403056", "longitude": "5.746944"},
{"name": "Baarn", "province": "Utrecht", "population": "24574", "latitude": "52.216667", "longitude": "5.3"},
{"name": "Baarle-Nassau", "province": "Noord-Brabant", "population": "6757", "latitude": "51.45", "longitude": "4.933333"}
]